[
  {"facilityCode": "11803011", "name": "UNIVERSITY OF GEORGIA", "city": "ATHENS", "state": "GA", "zip": "30602", "mha": 1779, "cautionFlag": null, "cautionReason": null, "schoolClosing": false, "yellowRibbon": false, "accredited": true, "accreditationType": "regional", "tuitionInState": 11180, "tuitionOutState": 30220, "books": 1002, "latitude": 33.9404278, "longitude": -83.3730490498829},
  {"facilityCode": "11900117", "name": "UNIVERSITY OF KENTUCKY", "city": "LEXINGTON", "state": "KY", "zip": "40506", "mha": 1755, "cautionFlag": null, "cautionReason": null, "schoolClosing": false, "yellowRibbon": false, "accredited": true, "accreditationType": "regional", "tuitionInState": 13212, "tuitionOutState": 33406, "books": 1200, "latitude": 38.0369946, "longitude": -84.5054665159978},
  {"facilityCode": "11802106", "name": "UNIVERSITY OF COLORADO BOULDER", "city": "BOULDER", "state": "CO", "zip": "80309", "mha": 2652, "cautionFlag": null, "cautionReason": null, "schoolClosing": false, "yellowRibbon": true, "accredited": true, "accreditationType": "regional", "tuitionInState": 16430, "tuitionOutState": 41943, "books": 1200, "latitude": 40.006271350000006, "longitude": -105.27017535258},
  {"facilityCode": "11801140", "name": "UNIVERSITY OF SOUTH CAROLINA-COLUMBIA", "city": "COLUMBIA", "state": "SC", "zip": "29208", "mha": 1875, "cautionFlag": null, "cautionReason": null, "schoolClosing": false, "yellowRibbon": true, "accredited": true, "accreditationType": "regional", "tuitionInState": 12688, "tuitionOutState": 34934, "books": 1226, "latitude": 33.99778304999598, "longitude": -81.0300478901298},
  {"facilityCode": "11801136", "name": "UNIVERSITY OF OKLAHOMA NORMAN CAMPUS", "city": "NORMAN", "state": "OK", "zip": "73019", "mha": 1623, "cautionFlag": null, "cautionReason": null, "schoolClosing": false, "yellowRibbon": true, "accredited": true, "accreditationType": "regional", "tuitionInState": 9595, "tuitionOutState": 26665, "books": 800, "latitude": 35.1959878, "longitude": -97.4457082759985}
]
